[
  {
    "id": 1,
    "name": "伊佐須美神社",
    "region": "北海道・東北",
    "reading": "いさすみじんじゃ",
    "province": "岩代国",
    "prefecture": "福島県",
    "address": "福島県大沼郡会津美里町宮林甲 4377 JR磐越西線 会津若松駅 バス30分(横町下車5分) 磐越自動車道 会津若松より20分",
    "zip": "969-6263",
    "tel": "0242-54-5050",
    "deity": "伊弉諾尊・伊弉冉尊・大毘古命・建沼河別命",
    "virtue": "事業育成・方除開運・厄除健康",
    "lat": 37.457113725804376,
    "lng": 139.84066719329655
  },
  {
    "id": 2,
    "name": "北海道神宮",
    "region": "北海道・東北",
    "reading": "ほっかいどうじんぐう",
    "province": "蝦夷国",
    "prefecture": "北海道",
    "address": "北海道札幌市中央区宮ヶ丘 474 JR札幌駅～地下鉄東西線 円山公園駅 徒歩10分",
    "zip": "064-8505",
    "tel": "011-611-0261",
    "deity": "大国魂神・大那牟遲神",
    "virtue": "北海道開拓・医薬守護・醸造守護",
    "lat": 43.05763057687839,
    "lng": 141.30577614859197
  },
  {
    "id": 3,
    "name": "岩木山神社",
    "region": "北海道・東北",
    "reading": "いわきやまじんじゃ",
    "province": "津軽国",
    "prefecture": "青森県",
    "address": "青森県弘前市百沢字寺沢 27 JR奥羽本線 弘前駅 バス岩木山神社前下車 弘前駅前タクシー 0172-32-0431",
    "zip": "036-1343",
    "tel": "0172-83-2135",
    "deity": "顕國魂神・多都比姫神",
    "virtue": "津軽守護・五穀豊穣・開運",
    "lat": 40.62233014612931,
    "lng": 140.3404187196859
  },
  {
    "id": 4,
    "name": "石都々古和気神社",
    "region": "北海道・東北",
    "reading": "いわつつこわけじんじゃ",
    "province": "陸奥国",
    "prefecture": "福島県",
    "address": "福島県石川郡石川町字下泉 296 JR水郡線 磐城石川駅 1km 石川タクシー 0247-26-0001",
    "zip": "963-7858",
    "tel": "0247-26-7534",
    "deity": "味耜高彦根命・大国主命",
    "virtue": "殖産興業・武運長久・安産守護",
    "lat": 37.14493851753486,
    "lng": 140.4510680352784
  },
  {
    "id": 5,
    "name": "八槻都々古別神社",
    "region": "北海道・東北",
    "reading": "やつきつつこわけじんじゃ",
    "province": "陸奥国",
    "prefecture": "福島県",
    "address": "福島県東白川郡棚倉町八槻大宮 224 JR水郡線 近津駅 800m(神社から宮司宅500m)",
    "zip": "963-5672",
    "tel": "0247-33-3505",
    "deity": "味耜高彦根命・日本武尊",
    "virtue": "交通安全・五穀豊穣・家内安全",
    "lat": 36.99483006580151,
    "lng": 140.3919087986907
  },
  {
    "id": 6,
    "name": "馬場都々古別神社",
    "region": "北海道・東北",
    "reading": "ばばつつこわけじんじゃ",
    "province": "陸奥国",
    "prefecture": "福島県",
    "address": "福島県東白川郡棚倉町棚倉字馬場 39 JR水郡線 磐城棚倉駅 1.3km あいタクシー 0247-33-3221",
    "zip": "963-6131",
    "tel": "0247-33-7219",
    "deity": "味耜高彦根命・日本武尊",
    "virtue": "殖産興業・家内安全・戦勝祈願",
    "lat": 37.03207334818368,
    "lng": 140.37599449939685
  },
  {
    "id": 7,
    "name": "駒形神社",
    "region": "北海道・東北",
    "reading": "こまがたじんじゃ",
    "province": "陸中国",
    "prefecture": "岩手県",
    "address": "岩手県奥州市水沢区中上野町 1-83 JR東北本線 水沢駅 1.3km",
    "zip": "023-0857",
    "tel": "0197-23-2851",
    "deity": "駒形大神",
    "virtue": "産業開発・交通安全・必勝祈願",
    "lat": 39.138628599366506,
    "lng": 141.13685501673714
  },
  {
    "id": 8,
    "name": "鳥海山大物忌神社（吹浦口之宮）",
    "region": "北海道・東北",
    "reading": "ちょうかいざんおおものいみじんじゃ（ふくらくちのみや）",
    "province": "出羽国",
    "prefecture": "山形県",
    "address": "山形県飽海郡遊佐町吹浦字布倉1 JR羽越本線 吹浦駅 徒歩5分",
    "zip": "999-8521",
    "tel": "0234-77-2301",
    "deity": "大物忌神",
    "virtue": "五穀豊穣・海上安全・厄除開運",
    "lat": 39.07973562147787,
    "lng": 139.879853791096
  },
  {
    "id": 9,
    "name": "鳥海山大物忌神社（蕨岡口之宮）",
    "region": "北海道・東北",
    "reading": "ちょうかいざんおおものいみじんじゃ（わらびおかくちのみや）",
    "province": "出羽国",
    "prefecture": "山形県",
    "address": "山形県飽海郡遊佐町上蕨岡字松ヶ岡51 JR羽越本線 遊佐駅 タクシー20分",
    "zip": "999-8314",
    "tel": "0234-72-2552",
    "deity": "大物忌神",
    "virtue": "五穀豊穣・海上安全・厄除開運",
    "lat": 39.00204432364941,
    "lng": 139.944105966503
  },
  {
    "id": 10,
    "name": "鹽竈神社・志波彦神社",
    "region": "北海道・東北",
    "reading": "しおがまじんじゃ・しわひこじんじゃ",
    "province": "陸奥国",
    "prefecture": "宮城県",
    "address": "宮城県塩竈市一森山 1-1 JR仙石線 本塩釜駅 800m",
    "zip": "985-8510",
    "tel": "022-367-1611",
    "deity": "鹽土老翁神・武甕槌神・経津主神・志波彦神",
    "virtue": "安産守護・延命長寿・大漁",
    "lat": 38.31918119163829,
    "lng": 141.01272230882762
  },
  {
    "id": 11,
    "name": "寒川神社",
    "region": "関東",
    "reading": "さむかわじんじゃ",
    "province": "相模国",
    "prefecture": "神奈川県",
    "address": "神奈川県高座郡寒川町宮山 3916 JR相模線 宮山駅 600m",
    "zip": "253-0195",
    "tel": "0467-75-0004",
    "deity": "寒川比古命・寒川比女命",
    "virtue": "八方除け・厄除け・家内安全",
    "lat": 35.37979571723054,
    "lng": 139.38346272365155
  },
  {
    "id": 12,
    "name": "鶴岡八幡宮",
    "region": "関東",
    "reading": "つるがおかはちまんぐう",
    "province": "相模国",
    "prefecture": "神奈川県",
    "address": "神奈川県鎌倉市雪ノ下 2-1-31 JR横須賀線 鎌倉駅 700m",
    "zip": "248-8588",
    "tel": "0467-22-0315",
    "deity": "応神天皇・比売神・神功皇后",
    "virtue": "出世開運・合格祈願・縁結び",
    "lat": 35.325983658039036,
    "lng": 139.5563464191141
  },
  {
    "id": 13,
    "name": "洲崎神社",
    "region": "関東",
    "reading": "すのさきじんじゃ",
    "province": "安房国",
    "prefecture": "千葉県",
    "address": "千葉県館山市洲崎 1697 JR内房線 館山駅 バス30分 12km 鏡浦自動車 0470-22-1135",
    "zip": "294-0316",
    "tel": "0470-33-2800",
    "deity": "天比理乃咩命",
    "virtue": "航海安全・足の守護・安産守護",
    "lat": 34.96802817355964,
    "lng": 139.7581177623868
  },
  {
    "id": 14,
    "name": "安房神社",
    "region": "関東",
    "reading": "あわじんじゃ",
    "province": "安房国",
    "prefecture": "千葉県",
    "address": "千葉県館山市大神宮 589 JR内房線 館山駅 バス30分 10km",
    "zip": "294-0233",
    "tel": "0470-28-0034",
    "deity": "天太玉命・天富命",
    "virtue": "交通安全・厄除開運・家内安全",
    "lat": 34.922465505578984,
    "lng": 139.83684874250412
  },
  {
    "id": 15,
    "name": "玉前神社",
    "region": "関東",
    "reading": "たまさきじんじゃ",
    "province": "上総国",
    "prefecture": "千葉県",
    "address": "千葉県長生郡一宮町一宮 3048 JR外房線 上総一宮駅 500m",
    "zip": "299-4301",
    "tel": "0475-42-2711",
    "deity": "玉依姫命",
    "virtue": "厄除開運・良縁・子授け",
    "lat": 35.37616101568171,
    "lng": 140.36047372199675
  },
  {
    "id": 16,
    "name": "香取神宮",
    "region": "関東",
    "reading": "かとりじんぐう",
    "province": "下総国",
    "prefecture": "千葉県",
    "address": "千葉県香取市香取 1697 JR成田線 佐原駅 バス10分 4km",
    "zip": "287-0017",
    "tel": "0478-57-3211",
    "deity": "経津主大神・武甕槌大神",
    "virtue": "海上守護・必勝祈願・災難除け",
    "lat": 35.88616250465118,
    "lng": 140.52872127336244
  },
  {
    "id": 17,
    "name": "秩父神社",
    "region": "関東",
    "reading": "ちちぶじんじゃ",
    "province": "知々夫国",
    "prefecture": "埼玉県",
    "address": "埼玉県秩父市番場町 1-3 秩父鉄道 秩父駅前・西武秩父線 西武秩父駅 1km",
    "zip": "368-0041",
    "tel": "0494-22-0262",
    "deity": "八意思兼命・知知夫彦命・天之御中主神",
    "virtue": "開運厄除・子宝子育・学業成就",
    "lat": 35.99748804019157,
    "lng": 139.0841402745517
  },
  {
    "id": 18,
    "name": "氷川女體神社",
    "region": "関東",
    "reading": "ひかわにょたいじんじゃ",
    "province": "武蔵国",
    "prefecture": "埼玉県",
    "address": "埼玉県さいたま市緑区宮本 2-17-1 JR武蔵野線 東浦和駅 バス10分 3.5km",
    "zip": "336-0916",
    "tel": "048-874-6054",
    "deity": "奇稲田姫命・大己貴命・三穂津姫命",
    "virtue": "武運長久・五穀豊穣・心願成就",
    "lat": 35.88694561982165,
    "lng": 139.6937097755675
  },
  {
    "id": 19,
    "name": "氷川神社",
    "region": "関東",
    "reading": "ひかわじんじゃ",
    "province": "武蔵国",
    "prefecture": "埼玉県",
    "address": "埼玉県さいたま市大宮区高鼻町1-407 JR東北本線 大宮駅 1.4km",
    "zip": "330-0803",
    "tel": "048-641-0137",
    "deity": "須佐之男命・稲田姫命・大己貴命",
    "virtue": "五穀豊穣・縁結び・厄除け",
    "lat": 35.91683954447735,
    "lng": 139.62968556471444
  },
  {
    "id": 20,
    "name": "貫前神社",
    "region": "関東",
    "reading": "ぬきさきじんじゃ",
    "province": "上野国",
    "prefecture": "群馬県",
    "address": "群馬県富岡市一ノ宮 1535 上信電鉄 上州一ノ宮駅 800m",
    "zip": "370-2452",
    "tel": "0274-62-2009",
    "deity": "経津主神・比売大神",
    "virtue": "交渉成就・必勝祈願・養蚕機織",
    "lat": 36.25503102745371,
    "lng": 138.85763580200492
  },
  {
    "id": 21,
    "name": "宇都宮二荒山神社",
    "region": "関東",
    "reading": "うつのみやふたあらやまじんじゃ",
    "province": "下野国",
    "prefecture": "栃木県",
    "address": "栃木県宇都宮市馬場通り 1-1-1 東北新幹線/JR東北本線 宇都宮駅 1.2km",
    "zip": "320-0026",
    "tel": "028-622-5271",
    "deity": "豊城入彦命",
    "virtue": "戦勝祈願・火災予防・家内安全",
    "lat": 36.562652104294095,
    "lng": 139.8857925332365
  },
  {
    "id": 22,
    "name": "日光二荒山神社",
    "region": "関東",
    "reading": "にっこうふたらさんじんじゃ",
    "province": "下野国",
    "prefecture": "栃木県",
    "address": "栃木県日光市山内 2307 東武日光線 東武日光駅・JR日光線 日光駅 2.3km",
    "zip": "321-1431",
    "tel": "0288-54-0535",
    "deity": "大巳貴命・田心姫命・味耜高彦根命",
    "virtue": "国土開発・温泉・縁結び",
    "lat": 36.75846184226228,
    "lng": 139.59644407479624
  },
  {
    "id": 23,
    "name": "鹿島神宮",
    "region": "関東",
    "reading": "かしまじんぐう",
    "province": "常陸国",
    "prefecture": "茨城県",
    "address": "茨城県鹿嶋市宮中 2306-1 JR鹿島線 鹿島神宮駅 600m",
    "zip": "314-0031",
    "tel": "0299-82-1209",
    "deity": "武甕槌大神",
    "virtue": "武道上達・交通安全・地震除け",
    "lat": 35.968711146037045,
    "lng": 140.63156563928905
  },
  {
    "id": 24,
    "name": "若狭姫神社（下社）",
    "region": "甲信越",
    "reading": "わかさひめじんじゃ",
    "province": "若狭国",
    "prefecture": "福井県",
    "address": "福井県小浜市遠敷 65-41 JR小浜線 東小浜駅 徒歩10分 600m",
    "zip": "917-0241",
    "tel": "0770-56-1116",
    "deity": "若狭姫神(豊玉姫命)",
    "virtue": "豊漁・安産育児・畳・敷物業守護",
    "lat": 35.478971849278516,
    "lng": 135.78021776419752
  },
  {
    "id": 25,
    "name": "若狭彦神社（上社）",
    "region": "甲信越",
    "reading": "わかさひこじんじゃ",
    "province": "若狭国",
    "prefecture": "福井県",
    "address": "福井県小浜市龍前 28-7 JR小浜線 東小浜駅 徒歩30分 2.5km",
    "zip": "917-0243",
    "tel": "0770-56-1116",
    "deity": "若狭彦神(彦火火出見尊)",
    "virtue": "豊漁・安産育児・畳・敷物業守護",
    "lat": 35.46616139622006,
    "lng": 135.778560242239
  },
  {
    "id": 26,
    "name": "氣比神宮",
    "region": "甲信越",
    "reading": "けひじんぐう",
    "province": "越前国",
    "prefecture": "福井県",
    "address": "福井県敦賀市曙町11-68 JR北陸本線 敦賀駅 1.2km",
    "zip": "914-0075",
    "tel": "0770-22-0794",
    "deity": "伊奢沙別命(主祭神)・仲哀天皇(帯中津彦命)・神功皇后(息長帯姫命)・日本武尊・応神天皇(誉田別命)・玉妃命・武内宿禰命",
    "virtue": "五穀豊穣・豊漁・音楽舞踏",
    "lat": 35.654789570717334,
    "lng": 136.07472031826714
  },
  {
    "id": 27,
    "name": "白山比咩神社",
    "region": "甲信越",
    "reading": "しらやまひめじんじゃ",
    "province": "加賀国",
    "prefecture": "石川県",
    "address": "石川県白山市三宮町ニ105-1 北陸鉄道鶴來駅からバス有り(徒歩5分)一の宮停から徒歩5分",
    "zip": "920-2114",
    "tel": "076-272-0680",
    "deity": "菊理媛神・伊弉諾尊・伊弉冉尊",
    "virtue": "五穀豊穣・漁業守護・縁結び",
    "lat": 36.43486826662604,
    "lng": 136.63645749060143
  },
  {
    "id": 28,
    "name": "氣多大社",
    "region": "甲信越",
    "reading": "けたたいしゃ",
    "province": "能登国",
    "prefecture": "石川県",
    "address": "石川県羽咋市寺家町 ク 1 JR七尾線 羽咋駅 バス10分 4.3km",
    "zip": "925-0003",
    "tel": "0767-22-0602",
    "deity": "大己貴命",
    "virtue": "国土開発・商売繁盛・縁結び",
    "lat": 36.92595897819139,
    "lng": 136.7675182422292
  },
  {
    "id": 29,
    "name": "射水神社",
    "region": "甲信越",
    "reading": "いみずじんじゃ",
    "province": "越中国",
    "prefecture": "富山県",
    "address": "富山県高岡市古城1-1 JR北陸本線 高岡駅 1.2km",
    "zip": "933-0044",
    "tel": "0766-22-3104",
    "deity": "二上神(瓊瓊杵尊)",
    "virtue": "五穀豊穣・商売繁盛・交通安全",
    "lat": 36.74876915496716,
    "lng": 137.0213589422824
  },
  {
    "id": 30,
    "name": "雄山神社・前立社壇",
    "region": "甲信越",
    "reading": "おやまじんじゃ・まえだてしゃだん",
    "province": "越中国",
    "prefecture": "富山県",
    "address": "富山県中新川郡立山町岩峅寺 1 富山地方鉄道 岩峅寺駅 800m",
    "zip": "930-1368",
    "tel": "076-483-1148",
    "deity": "伊邪那岐之神・天手力男神",
    "virtue": "家業繁栄・縁結び・諸難防災",
    "lat": 36.60760873198008,
    "lng": 137.31467957155965
  },
  {
    "id": 31,
    "name": "雄山神社・中宮祈願殿",
    "region": "甲信越",
    "reading": "おやまじんじゃ・ちゅうぐうきがんでん",
    "province": "越中国",
    "prefecture": "富山県",
    "address": "富山県中新川郡立山町芦峅寺 2 富山地方鉄道 千垣駅 2km",
    "zip": "930-1406",
    "tel": "076-482-1545",
    "deity": "伊弉那岐命・天手力雄命",
    "virtue": "家業繁栄・縁結び・諸難防災",
    "lat": 36.583473497071566,
    "lng": 137.39259890101224
  },
  {
    "id": 32,
    "name": "雄山神社・峰本社",
    "region": "甲信越",
    "reading": "おやまじんじゃ・みねほんしゃ",
    "province": "越中国",
    "prefecture": "富山県",
    "address": "富山県中新川郡立山町立山峰 1 立山駅～ケーブル美女平～バス室堂 徒歩約2時間",
    "zip": "930-1418",
    "tel": "076-433-9789",
    "deity": "伊弉諾尊・天手力男尊",
    "virtue": "家業繁栄・縁結び・諸難防災",
    "lat": 36.573327603698786,
    "lng": 137.61779576273523
  },
  {
    "id": 33,
    "name": "気多神社",
    "region": "甲信越",
    "reading": "けたじんじゃ",
    "province": "越中国",
    "prefecture": "富山県",
    "address": "富山県高岡市伏木一宮 1-10-1 JR氷見線 伏木駅 1.7km",
    "zip": "933-0116",
    "tel": "0766-44-1836",
    "deity": "大己貴命・奴奈加波比賣命",
    "virtue": "招福万来・無病息災・縁結び",
    "lat": 36.8000334,
    "lng": 137.0446843
  },
  {
    "id": 34,
    "name": "諏訪大社・下社春宮",
    "region": "甲信越",
    "reading": "すわたいしゃ・しもしゃはるみや",
    "province": "信濃国",
    "prefecture": "長野県",
    "address": "長野県諏訪郡下諏訪町193 JR中央本線 下諏訪駅 徒歩15分 1.2km",
    "zip": "393-0092",
    "tel": "0266-27-8316",
    "deity": "建御名方神・八坂刀売神・八重事代主神",
    "virtue": "五穀豊穣・諸願成就・開運招福",
    "lat": 36.082089222355364,
    "lng": 138.08215509825902
  },
  {
    "id": 35,
    "name": "諏訪大社・下社秋宮",
    "region": "甲信越",
    "reading": "すわたいしゃ・しもしゃあきみや",
    "province": "信濃国",
    "prefecture": "長野県",
    "address": "長野県諏訪郡下諏訪町 5828 JR中央本線 下諏訪駅 徒歩10分 700m",
    "zip": "393-0052",
    "tel": "0266-27-8035",
    "deity": "建御名方神・八坂刀売神・八重事代主神",
    "virtue": "五穀豊穣・諸願成就・開運招福",
    "lat": 36.075393895099914,
    "lng": 138.09127834905664
  },
  {
    "id": 36,
    "name": "諏訪大社・上社前宮",
    "region": "甲信越",
    "reading": "すわたいしゃ・かみしゃまえみや",
    "province": "信濃国",
    "prefecture": "長野県",
    "address": "長野県茅野市宮川2030 JR中央本線 茅野駅 タクシー10分 2.7km",
    "zip": "391-0013",
    "tel": "0266-72-1606",
    "deity": "八坂刀売神",
    "virtue": "五穀豊穣・諸願成就・開運招福",
    "lat": 35.99113238009004,
    "lng": 138.13343980695748
  },
  {
    "id": 37,
    "name": "諏訪大社・上社本宮",
    "region": "甲信越",
    "reading": "すわたいしゃ・かみしゃほんみや",
    "province": "信濃国",
    "prefecture": "長野県",
    "address": "長野県諏訪市中洲宮山 1 JR中央本線 茅野駅 タクシー15分 3.5km",
    "zip": "392-0015",
    "tel": "0266-52-1919",
    "deity": "建御名方神",
    "virtue": "五穀豊穣・諸願成就・開運招福",
    "lat": 35.99828047468218,
    "lng": 138.11914901271857
  },
  {
    "id": 38,
    "name": "高瀬神社",
    "region": "甲信越",
    "reading": "たかせじんじゃ",
    "province": "越中国",
    "prefecture": "富山県",
    "address": "富山県南砺市高瀬 291 JR城端線 福野駅 バス7分 3.3km",
    "zip": "932-0252",
    "tel": "0763-82-0932",
    "deity": "大己貴命(天活玉命・五十猛命)",
    "virtue": "五穀豊穣・縁結び・無病息災",
    "lat": 36.57165556708274,
    "lng": 136.94827904204635
  },
  {
    "id": 39,
    "name": "度津神社",
    "region": "甲信越",
    "reading": "わたつじんじゃ",
    "province": "佐渡国",
    "prefecture": "新潟県",
    "address": "新潟県佐渡市羽茂飯岡 550-4 小木港 タクシー15分 12km",
    "zip": "952-0503",
    "tel": "0259-88-2030",
    "deity": "五十猛命",
    "virtue": "植林守護・航海安全・交通安全",
    "lat": 37.86019758855368,
    "lng": 138.33077086050952
  },
  {
    "id": 40,
    "name": "居多神社",
    "region": "甲信越",
    "reading": "こたじんじゃ",
    "province": "越後国",
    "prefecture": "新潟県",
    "address": "新潟県上越市五智 6-1-11 JR信越本線 直江津駅 タクシー5分 2km",
    "zip": "942-0081",
    "tel": "025-543-4354",
    "deity": "大国主神(奴奈川姫・建御名方命)",
    "virtue": "縁結び・子宝・安産守護",
    "lat": 37.16647765388211,
    "lng": 138.22315871330477
  },
  {
    "id": 41,
    "name": "彌彦神社",
    "region": "甲信越",
    "reading": "いやひこじんじゃ",
    "province": "越後国",
    "prefecture": "新潟県",
    "address": "新潟県西蒲原郡弥彦村弥彦2887-2 JR弥彦線 弥彦駅 1km",
    "zip": "959-0323",
    "tel": "0256-94-2001",
    "deity": "天香山命",
    "virtue": "五穀豊穣・豊漁・開運厄除",
    "lat": 37.70658923390419,
    "lng": 138.82623217707487
  },
  {
    "id": 42,
    "name": "浅間神社",
    "region": "甲信越",
    "reading": "あさまじんじゃ",
    "province": "甲斐国",
    "prefecture": "山梨県",
    "address": "山梨県笛吹市一宮町一ノ宮 1684 JR中央本線 山梨市駅 タクシー10分 9km",
    "zip": "405-0056",
    "tel": "0553-47-0900",
    "deity": "木花開耶姫命",
    "virtue": "水難除去・子授安産・夫婦円満",
    "lat": 35.64773528919653,
    "lng": 138.69755879099046
  },
  {
    "id": 43,
    "name": "大神神社",
    "region": "東海",
    "reading": "おおみわじんじゃ",
    "province": "尾張国",
    "prefecture": "愛知県",
    "address": "愛知県一宮市花池 2-15-28 JR尾張一宮駅 徒歩1.5km",
    "zip": "491-0914",
    "tel": "",
    "deity": "大物主神",
    "virtue": "五穀豊穣・無病息災・造酒守護",
    "lat": 35.29165023497564,
    "lng": 136.7933488498138
  },
  {
    "id": 44,
    "name": "伊射波神社",
    "region": "東海",
    "reading": "いざわじんじゃ",
    "province": "志摩国",
    "prefecture": "三重県",
    "address": "三重県鳥羽市安楽島町字加布良古 1020 JR参宮線・近鉄 鳥羽駅 バス25分 安楽島より1.3km",
    "zip": "517-0021",
    "tel": "",
    "deity": "稚日女尊・伊佐波登美尊・玉柱屋姫命",
    "virtue": "大漁祈願・海上安全・縁結び",
    "lat": 34.47334403466813,
    "lng": 136.875494793762
  },
  {
    "id": 45,
    "name": "伊雑宮",
    "region": "東海",
    "reading": "いざわのみや",
    "province": "志摩国",
    "prefecture": "三重県",
    "address": "三重県志摩市磯部町上之郷374 近鉄志摩線 上之郷駅 300m",
    "zip": "517-0208",
    "tel": "0599-55-0038",
    "deity": "天照坐皇大御神御魂",
    "virtue": "大漁・海上安全・方除け",
    "lat": 34.380251407155754,
    "lng": 136.80898697408216
  },
  {
    "id": 46,
    "name": "都波岐神社・奈加等神社",
    "region": "東海",
    "reading": "つばきじんじゃ・なかとじんじゃ",
    "province": "伊勢国",
    "prefecture": "三重県",
    "address": "三重県鈴鹿市一ノ宮町 1181 近鉄鈴鹿線 鈴鹿市駅 バス 2.8km",
    "zip": "513-0031",
    "tel": "0593-83-9698",
    "deity": "猿田彦大神・中筒之男命・天椹野命",
    "virtue": "方災解除・交通安全・病気平癒",
    "lat": 34.90131259468201,
    "lng": 136.60127053637504
  },
  {
    "id": 47,
    "name": "椿大神社",
    "region": "東海",
    "reading": "つばきおおかみやしろ",
    "province": "伊勢国",
    "prefecture": "三重県",
    "address": "三重県鈴鹿市山本町 1871 近鉄四日市駅 バス50分 20km",
    "zip": "519-0315",
    "tel": "059-371-1515",
    "deity": "猿田彦大神",
    "virtue": "交通安全・方除厄除・芸能向上",
    "lat": 34.9643736327424,
    "lng": 136.45208577013864
  },
  {
    "id": 48,
    "name": "敢國神社",
    "region": "東海",
    "reading": "あえくにじんじゃ",
    "province": "伊賀国",
    "prefecture": "三重県",
    "address": "三重県伊賀市一之宮877 JR関西線 佐那具駅 2.6km JR関西線 伊賀上野駅 タクシー",
    "zip": "518-0003",
    "tel": "0595-23-3061",
    "deity": "大彦命・少彦名命・金山比咩命",
    "virtue": "交通安全・健康長寿・商売繁盛",
    "lat": 34.787424035975626,
    "lng": 136.16397164544557
  },
  {
    "id": 49,
    "name": "南宮大社",
    "region": "東海",
    "reading": "なんぐうたいしゃ",
    "province": "美濃国",
    "prefecture": "岐阜県",
    "address": "岐阜県不破郡垂井町宮代 1734-1 JR東海道本線 垂井駅 1.5km",
    "zip": "503-2124",
    "tel": "0584-22-1225",
    "deity": "金山彦命(見野命・彦火火出見命)",
    "virtue": "鉱山守護・破魔除災・金運招福",
    "lat": 35.36075896159883,
    "lng": 136.5250504881454
  },
  {
    "id": 50,
    "name": "水無神社",
    "region": "東海",
    "reading": "みなしじんじゃ",
    "province": "飛騨国",
    "prefecture": "岐阜県",
    "address": "岐阜県高山市一之宮町 5323 JR高山本線 飛騨一ノ宮駅 500m",
    "zip": "509-3505",
    "tel": "0577-53-2001",
    "deity": "水無大神(御年神)",
    "virtue": "祈雨・開運厄除・交通安全",
    "lat": 36.08536106398945,
    "lng": 137.25180719517144
  },
  {
    "id": 51,
    "name": "真清田神社",
    "region": "東海",
    "reading": "ますみだじんじゃ",
    "province": "尾張国",
    "prefecture": "愛知県",
    "address": "愛知県一宮市真清田 1-2-1 JR尾張一宮駅 800m",
    "zip": "491-0043",
    "tel": "0586-73-5196",
    "deity": "天火明命",
    "virtue": "事業守護・機織守護・眼病平癒",
    "lat": 35.307476888165375,
    "lng": 136.80203513543378
  },
  {
    "id": 52,
    "name": "砥鹿神社",
    "region": "東海",
    "reading": "とがじんじゃ",
    "province": "三河国",
    "prefecture": "愛知県",
    "address": "愛知県豊川市一宮町西垣内2 JR飯田線 三河一宮駅 600m",
    "zip": "441-1231",
    "tel": "0533-93-2001",
    "deity": "大己貴命",
    "virtue": "家内安全・交通安全・厄難消除",
    "lat": 34.84767039697268,
    "lng": 137.42122698780528
  },
  {
    "id": 53,
    "name": "事任八幡宮",
    "region": "東海",
    "reading": "ことのままはちまんぐう",
    "province": "遠江国",
    "prefecture": "静岡県",
    "address": "静岡県掛川市八坂642 東海道新幹線 掛川駅タクシー13分",
    "zip": "436-0004",
    "tel": "0537-27-1690",
    "deity": "己等乃麻知媛命・他三柱",
    "virtue": "延命長寿・諸願成就・安産守護",
    "lat": 34.79840258478627,
    "lng": 138.07543095477376
  },
  {
    "id": 54,
    "name": "小國神社",
    "region": "東海",
    "reading": "おぐにじんじゃ",
    "province": "遠江国",
    "prefecture": "静岡県",
    "address": "静岡県周知郡森町一宮 3956-1天竜浜名湖鉄道 遠江一宮駅 送迎バス(事前問合せ)",
    "zip": "437-0226",
    "tel": "0538-89-7302",
    "deity": "大己貴命",
    "virtue": "開運福徳・縁結び・胃腸病平癒",
    "lat": 34.846774092006896,
    "lng": 137.899513799535
  },
  {
    "id": 55,
    "name": "富士山本宮浅間大社",
    "region": "東海",
    "reading": "ふじさんほんぐうせんげんたいしゃ",
    "province": "駿河国",
    "prefecture": "静岡県",
    "address": "静岡県富士宮市宮町 1-1 JR身延線 富士宮駅 1km",
    "zip": "418-0067",
    "tel": "0544-27-2002",
    "deity": "木花之佐久夜毘売命",
    "virtue": "火難消除・安産守護・航海安全",
    "lat": 35.22751733976107,
    "lng": 138.61002029474025
  },
  {
    "id": 56,
    "name": "三嶋大社",
    "region": "東海",
    "reading": "みしまたいしゃ",
    "province": "伊豆国",
    "prefecture": "静岡県",
    "address": "静岡県三島市大宮町2-1-5 東海道新幹線 三島駅 1km",
    "zip": "411-0035",
    "tel": "055-975-0172",
    "deity": "大山祗命・積羽八重事代主神",
    "virtue": "家内安全・商売繁盛・豊漁",
    "lat": 35.12231877847288,
    "lng": 138.91882104102754
  },
  {
    "id": 57,
    "name": "粟鹿神社",
    "region": "近畿",
    "reading": "あわがじんじゃ",
    "province": "但馬国",
    "prefecture": "兵庫県",
    "address": "兵庫県朝来市山東町粟鹿 2152 JR山陰本線・播但線 和田山駅 8.5km JR山陰本線 梁瀬駅 5km",
    "zip": "669-5125",
    "tel": "079-676-2465",
    "deity": "日子坐王命・天美佐利命・彦火々出見命・豊玉命",
    "virtue": "",
    "lat": 35.300733933607006,
    "lng": 134.90489792368075
  },
  {
    "id": 58,
    "name": "出石神社",
    "region": "近畿",
    "reading": "いずしじんじゃ",
    "province": "但馬国",
    "prefecture": "兵庫県",
    "address": "兵庫県豊岡市出石町宮内 99-99 JR山陰本線 豊岡駅 バス25分 10km",
    "zip": "668-0204",
    "tel": "0796-52-2440",
    "deity": "天日槍命・出石八前大神",
    "virtue": "治水・殖産興業・子宝安産",
    "lat": 35.48174387919773,
    "lng": 134.87027837314662
  },
  {
    "id": 59,
    "name": "伊和神社",
    "region": "近畿",
    "reading": "いわじんじゃ",
    "province": "播磨国",
    "prefecture": "兵庫県",
    "address": "兵庫県宍粟市一宮町須行名 407 姫路駅神姫バス山崎60分 , 乗換伊和神社前20分",
    "zip": "671-4133",
    "tel": "0790-72-0075",
    "deity": "大己貴神",
    "virtue": "産業守護・縁結び・病気平癒",
    "lat": 35.087750630839906,
    "lng": 134.58643329578953
  },
  {
    "id": 60,
    "name": "伊弉諾神宮",
    "region": "近畿",
    "reading": "いざなぎじんぐう",
    "province": "淡路国",
    "prefecture": "兵庫県",
    "address": "兵庫県淡路市多賀 740 バス:淡路交通 津名港バス停乗車 神宮前下車 バス:淡路交通 郡家バス停乗車 神宮前下車 淡路交通業務課(電話:0799-22-3121)",
    "zip": "656-1521",
    "tel": "0799-80-5001",
    "deity": "伊弉諾大神・伊弉冉大神",
    "virtue": "延命長寿・子宝安産・縁結び",
    "lat": 34.46005148885071,
    "lng": 134.85249680089126
  },
  {
    "id": 61,
    "name": "丹生都比売神社",
    "region": "近畿",
    "reading": "にうつひめじんじゃ",
    "province": "紀伊国",
    "prefecture": "和歌山県",
    "address": "和歌山県伊都郡かつらぎ町上天野 230 JR和歌山線 笠田駅 コミュニティバス30分又はタクシー20分 11km",
    "zip": "649-7141",
    "tel": "073-626-0102",
    "deity": "丹生都比売大神(稚日女神) 他三柱",
    "virtue": "家内安全・交通安全・商売繁盛",
    "lat": 34.262754796185924,
    "lng": 135.5219531819867
  },
  {
    "id": 62,
    "name": "日前神宮・國懸神宮",
    "region": "近畿",
    "reading": "ひのくまじんぐう・くにかかすじんぐう",
    "province": "紀伊国",
    "prefecture": "和歌山県",
    "address": "和歌山県和歌山市秋月 365 和歌山電鐵貴志川線 日前宮駅 200m",
    "zip": "640-8322",
    "tel": "073-471-3730",
    "deity": "日前大神・國懸大神",
    "virtue": "縁結び・家運繁栄・家内安全",
    "lat": 34.22783126927165,
    "lng": 135.20184990931025
  },
  {
    "id": 63,
    "name": "伊太祁曽神社",
    "region": "近畿",
    "reading": "いたきそじんじゃ",
    "province": "紀伊国",
    "prefecture": "和歌山県",
    "address": "和歌山県和歌山市伊太祈曽 558 和歌山電鐵貴志川線 伊太祁曽駅 400m",
    "zip": "640-0361",
    "tel": "073-478-0006",
    "deity": "五十猛命(大屋津比売命・都麻津比売命)",
    "virtue": "林業守護・厄除け・航海安全",
    "lat": 34.20173014561379,
    "lng": 135.25038290104467
  },
  {
    "id": 64,
    "name": "大神神社",
    "region": "近畿",
    "reading": "おおみわじんじゃ",
    "province": "大和国",
    "prefecture": "奈良県",
    "address": "奈良県桜井市三輪 1422 JR桜井線 三輪駅 500m",
    "zip": "633-8538",
    "tel": "0744-42-6633",
    "deity": "大物主大神・少彦名神",
    "virtue": "産業開発・医薬酒造・方除け",
    "lat": 34.528798402083126,
    "lng": 135.85323489741418
  },
  {
    "id": 65,
    "name": "大鳥神社",
    "region": "近畿",
    "reading": "おおとりたいしゃ",
    "province": "和泉国",
    "prefecture": "大阪府",
    "address": "大阪府堺市西区鳳北町 1-1-2 JR阪和線 鳳駅 700m",
    "zip": "593-8328",
    "tel": "072-262-0040",
    "deity": "日本武尊・大鳥連祖神",
    "virtue": "文武上達・商業守護・厄除",
    "lat": 34.536823363829036,
    "lng": 135.4607757557279
  },
  {
    "id": 66,
    "name": "枚岡神社",
    "region": "近畿",
    "reading": "ひらおかじんじゃ",
    "province": "河内国",
    "prefecture": "大阪府",
    "address": "大阪府東大阪市出雲井町 7-16 近鉄奈良線 枚岡駅 徒歩2分 200m",
    "zip": "579-8033",
    "tel": "072-981-4177",
    "deity": "天兒屋根命・比売御神・ 経津主大神・武甕槌大神",
    "virtue": "家内安全・学業成就・大願成就",
    "lat": 34.66987008930687,
    "lng": 135.65099321580496
  },
  {
    "id": 67,
    "name": "坐摩神社",
    "region": "近畿",
    "reading": "いかすりじんじゃ",
    "province": "摂津国",
    "prefecture": "大阪府",
    "address": "大阪府大阪市中央区久太郎町4-3 市営地下鉄御堂筋線 本町駅 徒歩3分 200m",
    "zip": "541-0056",
    "tel": "06-6251-4792",
    "deity": "生井神・福井神・綱長井神 波比岐神・阿須波神",
    "virtue": "住居守護・旅行安全・安産守護",
    "lat": 34.68094151272639,
    "lng": 135.49858968573542
  },
  {
    "id": 68,
    "name": "住吉大社",
    "region": "近畿",
    "reading": "すみよしたいしゃ",
    "province": "摂津国",
    "prefecture": "大阪府",
    "address": "大阪府大阪市住吉区住吉 2-9-89 南海本線 住吉大社駅 徒歩3分 100m 南海高野線 住吉東駅 から西へ徒歩5分500m 阪堺線 住吉鳥居前駅 から徒歩すぐ",
    "zip": "558-0045",
    "tel": "06-6672-0753",
    "deity": "底筒男命・中筒男命・ 表筒男命・神功皇后",
    "virtue": "禊祓い・歌道上達・海上守護",
    "lat": 34.61238851868721,
    "lng": 135.49376013336766
  },
  {
    "id": 69,
    "name": "元伊勢 籠神社",
    "region": "近畿",
    "reading": "もといせ このじんじゃ",
    "province": "丹後国",
    "prefecture": "京都",
    "address": "京都府宮津市大垣 430 北近畿タンゴ鉄道 天橋立駅 タクシー15分10km",
    "zip": "629-2242",
    "tel": "0772-27-0006",
    "deity": "彦火明命(豊受大神・天照大神・海神・天水分神)",
    "virtue": "子孫長福・交通安全・水利水運守護",
    "lat": 35.5826648130183,
    "lng": 135.19667156072146
  },
  {
    "id": 70,
    "name": "出雲大神宮",
    "region": "近畿",
    "reading": "いずもだいじんぐう",
    "province": "丹波国",
    "prefecture": "京都",
    "address": "京都府亀岡市千歳町千歳出雲 JR山陰本線 亀岡駅 タクシー10分 6km",
    "zip": "621-0002",
    "tel": "0771-24-7799",
    "deity": "大国主命・三穂津姫命",
    "virtue": "長寿・縁結び・金運",
    "lat": 35.05946058123373,
    "lng": 135.57841423128747
  },
  {
    "id": 71,
    "name": "賀茂御祖神社（下鴨神社）",
    "region": "近畿",
    "reading": "かもみおやじんじゃ（しもがもじんじゃ）",
    "province": "山城国",
    "prefecture": "京都",
    "address": "京都府京都市左京区下鴨泉川町 59 JR京都駅 バス30分・京阪・叡山電鉄 出町柳駅 500m",
    "zip": "606-0807",
    "tel": "75-781-0010",
    "deity": "玉依媛命・賀茂健角身命",
    "virtue": "厄除け・商売繁盛・縁結び",
    "lat": 35.038975101752435,
    "lng": 135.77300748837408
  },
  {
    "id": 72,
    "name": "賀茂別雷神社（上賀茂神社）",
    "region": "近畿",
    "reading": "かもわけいかづちじんじゃ（かみがもじんじゃ）",
    "province": "山城国",
    "prefecture": "京都",
    "address": "京都府京都市北区上賀茂本山 339 地下鉄烏丸線 北大路駅 バス10分 2km",
    "zip": "603-8047",
    "tel": "075-781-0011",
    "deity": "賀茂別雷大神",
    "virtue": "厄除除災・方除け・電機産業守",
    "lat": 35.060381021977086,
    "lng": 135.75272615868346
  },
  {
    "id": 73,
    "name": "建部大社",
    "region": "近畿",
    "reading": "たけべたいしゃ",
    "province": "近江国",
    "prefecture": "滋賀県",
    "address": "滋賀県大津市神領 1-16-1 JR東海道本線 石山駅 2km 京阪石山坂本線 唐橋前駅 1km",
    "zip": "520-2132",
    "tel": "077-545-0038",
    "deity": "日本武尊",
    "virtue": "出世開運・除災厄除・医療醸造",
    "lat": 34.97363486914614,
    "lng": 135.9135036946144
  },
  {
    "id": 74,
    "name": "吉備津神社",
    "region": "中国",
    "reading": "きびつじんじゃ",
    "province": "備後国",
    "prefecture": "広島県",
    "address": "広島県福山市新市町宮内 400 JR福塩線 新市駅 1.5km",
    "zip": "729-3104",
    "tel": "0847-51-3395",
    "deity": "大吉備津彦命",
    "virtue": "開運招福・交通安全・厄除け",
    "lat": 34.56934788638782,
    "lng": 133.27107791640654
  },
  {
    "id": 75,
    "name": "吉備津神社",
    "region": "中国",
    "reading": "きびつじんじゃ",
    "province": "備中国",
    "prefecture": "岡山県",
    "address": "岡山県岡山市北区吉備津 931 JR吉備線 吉備津駅 1km",
    "zip": "701-1341",
    "tel": "086-287-4111",
    "deity": "大吉備津彦大神",
    "virtue": "延命長寿・工業・運輸交通守護・ 安産育児",
    "lat": 34.67139947230933,
    "lng": 133.8503823821766
  },
  {
    "id": 76,
    "name": "玉祖神社",
    "region": "中国",
    "reading": "たまのおやじんじゃ",
    "province": "周防国",
    "prefecture": "山口県",
    "address": "山口県防府市大崎 1690 JR山陽本線 防府駅 タクシー10分 5km",
    "zip": "747-0065",
    "tel": "0835-21-3915",
    "deity": "玉祖命",
    "virtue": "宝石・眼鏡守護・豊漁海上安全・ 陶芸業守護",
    "lat": 34.05766979534308,
    "lng": 131.53355576004287
  },
  {
    "id": 77,
    "name": "住吉神社",
    "region": "中国",
    "reading": "すみよしじんじゃ",
    "province": "長門国",
    "prefecture": "山口県",
    "address": "山口県下関市一の宮住吉 1-11-1 山陽新幹線 新下関駅 バス5分 2.1km",
    "zip": "751-0805",
    "tel": "0832-56-2656",
    "deity": "住吉大神・応神天皇",
    "virtue": "開運厄除・豊漁・若返り",
    "lat": 33.999475060368844,
    "lng": 130.95658851752634
  },
  {
    "id": 78,
    "name": "嚴島神社",
    "region": "中国",
    "reading": "いつくしまじんじゃ",
    "province": "安芸国",
    "prefecture": "広島県",
    "address": "広島県廿日市市宮島町 1-1 JR山陽本線 宮島口駅 宮島航路10分 港800m",
    "zip": "739-0588",
    "tel": "0829-44-2020",
    "deity": "市杵島姫命・田心姫命・ 湍津姫命",
    "virtue": "国家鎮護・航海守護・芸能上達",
    "lat": 34.29603030784004,
    "lng": 132.31981436249583
  },
  {
    "id": 79,
    "name": "素盞嗚神社",
    "region": "中国",
    "reading": "すさのおじんじゃ",
    "province": "備後国",
    "prefecture": "広島県",
    "address": "広島県福山市新市町戸手 1-1 JR福塩線 上戸手線 400m",
    "zip": "729-3101",
    "tel": "0847-51-2958",
    "deity": "素盞嗚尊",
    "virtue": "疫病除け・災難除け・学業成就",
    "lat": 34.55272229639974,
    "lng": 133.2792630756511
  },
  {
    "id": 80,
    "name": "中山神社",
    "region": "中国",
    "reading": "なかやまじんじゃ",
    "province": "美作国",
    "prefecture": "岡山県",
    "address": "岡山県津山市一宮 695 JR姫新線 津山駅 バス15分 5km",
    "zip": "708-0815",
    "tel": "0868-27-0051",
    "deity": "鏡作神",
    "virtue": "鍛金治工採鉱・農耕守護・牛馬守護",
    "lat": 35.10027737452182,
    "lng": 133.99447745382898
  },
  {
    "id": 81,
    "name": "石上布都魂神社",
    "region": "中国",
    "reading": "いそのかみふつみたまじんじゃ",
    "province": "備前国",
    "prefecture": "岡山県",
    "address": "岡山県赤磐市石上 1448 JR津山線 金川駅 タクシー15分 9km 成広タクシー 0867-24-0818",
    "zip": "701-2445",
    "tel": "",
    "deity": "素盞嗚尊",
    "virtue": "安産守護・農業振興・癌封じ",
    "lat": 34.851723986679424,
    "lng": 133.97041386169488
  },
  {
    "id": 82,
    "name": "吉備津彦神社",
    "region": "中国",
    "reading": "きびつひこじんじゃ",
    "province": "備前国",
    "prefecture": "岡山県",
    "address": "岡山県岡山市北区一宮 1043 JR吉備線 備前一宮駅 徒歩5分",
    "zip": "701-1211",
    "tel": "086-284-0031",
    "deity": "大吉備津彦命",
    "virtue": "延命長寿・厄除け・安産育児",
    "lat": 34.67659827480795,
    "lng": 133.86352079501214
  },
  {
    "id": 83,
    "name": "由良比女神社",
    "region": "中国",
    "reading": "ゆらひめじんじゃ",
    "province": "隠岐国",
    "prefecture": "島根県",
    "address": "島根県隠岐郡西ノ島町浦郷922 隠岐汽船 別府港 バス23分 11km",
    "zip": "684-0211",
    "tel": "08514-6-0950",
    "deity": "由良比女命",
    "virtue": "豊漁・海上守護・家庭円満",
    "lat": 36.092021737190464,
    "lng": 132.98789477275764
  },
  {
    "id": 84,
    "name": "水若酢神社",
    "region": "中国",
    "reading": "みずわかすじんじゃ",
    "province": "隠岐国",
    "prefecture": "島根県",
    "address": "島根県隠岐郡隠岐の島町 723 隠岐汽船 西郷港 バス40分13km",
    "zip": "685-0311",
    "tel": "08512-5-2123",
    "deity": "水若酢命",
    "virtue": "隠岐開発・日本海鎮護・醸造守護",
    "lat": 36.28022147441804,
    "lng": 133.2490710149287
  },
  {
    "id": 85,
    "name": "物部神社",
    "region": "中国",
    "reading": "もののべじんじゃ",
    "province": "石見国",
    "prefecture": "島根県",
    "address": "島根県大田市川合町川合 1545 JR山陰本線 大田市駅 タクシー10分 5.5km",
    "zip": "694-0011",
    "tel": "0854-82-0644",
    "deity": "宇摩志麻遅命",
    "virtue": "鎮魂祈願・病気平癒・文武上達",
    "lat": 35.15500980237063,
    "lng": 132.51347173446464
  },
  {
    "id": 86,
    "name": "熊野大社",
    "region": "中国",
    "reading": "くまのたいしゃ",
    "province": "出雲国",
    "prefecture": "島根県",
    "address": "島根県松江市八雲町熊野 2451 JR山陰本線 松江駅 タクシー25分 16km バス:一畑バス 八雲 乗換 コミュニティバス40分",
    "zip": "690-2104",
    "tel": "0852-54-0087",
    "deity": "熊野大神・櫛御気野命",
    "virtue": "殖産興業・招福縁結び・医薬守護",
    "lat": 35.37338796656766,
    "lng": 133.07031340014137
  },
  {
    "id": 87,
    "name": "出雲大社",
    "region": "中国",
    "reading": "いずもおおやしろ・いずもたいしゃ",
    "province": "出雲国",
    "prefecture": "島根県",
    "address": "島根県出雲市大社町杵築東195 JR山陰本線 出雲市駅 バス20分 10km 一畑電鉄 出雲大社前駅",
    "zip": "699-0701",
    "tel": "0853-53-3100",
    "deity": "大国主大神",
    "virtue": "縁結び・福徳守護・医薬守護",
    "lat": 35.40188078928392,
    "lng": 132.68546657703604
  },
  {
    "id": 88,
    "name": "倭文神社",
    "region": "中国",
    "reading": "しとりじんじゃ・しずりじんじゃ",
    "province": "伯耆国",
    "prefecture": "鳥取県",
    "address": "鳥取県東伯郡湯梨浜町宮内 754 JR山陰本線 松崎駅 タクシー5分 4km",
    "zip": "689-0707",
    "tel": "0858-32-1985",
    "deity": "建葉槌命・下照姫命",
    "virtue": "安産守護・農業開発・医薬普及",
    "lat": 35.49066022832876,
    "lng": 133.90291442860652
  },
  {
    "id": 89,
    "name": "宇倍神社",
    "region": "中国",
    "reading": "うべじんじゃ",
    "province": "因幡国",
    "prefecture": "鳥取県",
    "address": "鳥取県鳥取市国府町宮下 651 JR山陰本線 鳥取駅 バス20分 4.5km",
    "zip": "680-0151",
    "tel": "0857-22-5025",
    "deity": "武内宿禰命",
    "virtue": "延命長寿・立身出世・商売繁盛",
    "lat": 35.480969775183894,
    "lng": 134.26881171761076
  },
  {
    "id": 90,
    "name": "土佐神社",
    "region": "四国",
    "reading": "とさじんじゃ",
    "province": "土佐国",
    "prefecture": "高知県",
    "address": "高知県高知市一宮しなね 2-16-1 JR土讃線 土佐一宮駅 1.5km",
    "zip": "781-8131",
    "tel": "088-845-1096",
    "deity": "味耜高彦根神・一言主神",
    "virtue": "開運招福・諸業繁栄・国土開発",
    "lat": 33.59289587743066,
    "lng": 133.57700491485826
  },
  {
    "id": 91,
    "name": "大山祇神社",
    "region": "四国",
    "reading": "おおやまづみじんじゃ",
    "province": "伊予国",
    "prefecture": "愛媛県",
    "address": "愛媛県今治市大三島町宮浦 3327 しまなみライナー 大三島バス停 バス10分",
    "zip": "794-1304",
    "tel": "0897-82-0032",
    "deity": "大山積神",
    "virtue": "山林鉱山守護・航海安全・祈雨祈晴",
    "lat": 34.248236738874716,
    "lng": 133.0057258586767
  },
  {
    "id": 92,
    "name": "田村神社",
    "region": "四国",
    "reading": "たむらじんじゃ",
    "province": "讃岐国",
    "prefecture": "香川県",
    "address": "香川県高松市一宮町 286 高松琴平電鉄琴平線 一宮駅 1km",
    "zip": "761-8084",
    "tel": "087-885-1541",
    "deity": "倭迹迹日百襲姫命",
    "virtue": "病気平癒・方除け・交通安全",
    "lat": 34.29177498701568,
    "lng": 134.02748040295154
  },
  {
    "id": 93,
    "name": "大麻比古神社",
    "region": "四国",
    "reading": "おおあさひこじんじゃ",
    "province": "阿波国",
    "prefecture": "徳島県",
    "address": "徳島県鳴門市大麻町板東字広塚 13 JR高徳線 板東駅 2km",
    "zip": "779-0230",
    "tel": "088-689-1212",
    "deity": "大麻比古大神・猿田彦大神",
    "virtue": "方除け・交通安全・厄除け",
    "lat": 34.17331039419173,
    "lng": 134.50325598934447
  },
  {
    "id": 94,
    "name": "高良大社",
    "region": "九州・沖縄",
    "reading": "こうらたいしゃ",
    "province": "筑後国",
    "prefecture": "福岡県",
    "address": "福岡県久留米市御井町1番地 JR九州久大本線 久留米大学前駅 （徒歩約35分） JR久留米駅・西鉄久留米駅方面から、西鉄バス（1－1番御井町経由信愛女学院行き）で、「御井町」バス停下車 正月や祭事の際には、西鉄久留米駅より高良大社下まで臨時バス有り 地図",
    "zip": "893-0851",
    "tel": "0942-43-4893",
    "deity": "高良玉垂命・八幡大神・住吉大神",
    "virtue": "",
    "lat": 33.301970790889925,
    "lng": 130.56576902754054
  },
  {
    "id": 95,
    "name": "波上宮",
    "region": "九州・沖縄",
    "reading": "なみのうえぐう",
    "province": "琉球国",
    "prefecture": "沖縄県",
    "address": "沖縄県那覇市若狭 1-25-11 ゆいレール(沖縄都市モノレール) 旭橋駅1km",
    "zip": "900-0031",
    "tel": "098-868-3697",
    "deity": "伊弉冊尊・速玉男尊・事解男尊",
    "virtue": "国家鎮護・航海安全・家内安全",
    "lat": 26.221237024295142,
    "lng": 127.67118698587592
  },
  {
    "id": 96,
    "name": "枚聞神社",
    "region": "九州・沖縄",
    "reading": "ひらききじんじゃ",
    "province": "薩摩国",
    "prefecture": "鹿児島県",
    "address": "鹿児島県指宿市開聞十町 1366JR指宿枕崎線 開聞駅 1km",
    "zip": "891-0603",
    "tel": "0993-32-2007",
    "deity": "大日孁貴命",
    "virtue": "交通安全・航海安全・漁業守護",
    "lat": 31.20779090260657,
    "lng": 130.53953461738536
  },
  {
    "id": 97,
    "name": "新田神社",
    "region": "九州・沖縄",
    "reading": "にったじんじゃ",
    "province": "薩摩国",
    "prefecture": "鹿児島県",
    "address": "鹿児島県薩摩川内市宮内町 1935-2 JR鹿児島本線 上川内駅 1.7km",
    "zip": "895-0065",
    "tel": "0996-22-4722",
    "deity": "天津日高彦火瓊瓊杵尊",
    "virtue": "五穀豊穣・安産守護・交通安全",
    "lat": 31.82744345782522,
    "lng": 130.29266183002255
  },
  {
    "id": 98,
    "name": "鹿兒島神宮",
    "region": "九州・沖縄",
    "reading": "かごしまじんぐう",
    "province": "大隈国",
    "prefecture": "鹿児島県",
    "address": "鹿児島県霧島市隼人町内 2496 JR日豊本線 隼人駅 1km",
    "zip": "899-5116",
    "tel": "0995-42-0020",
    "deity": "天津日高彦穂穂出見尊・ 豊玉比売命",
    "virtue": "五穀豊穣・豊漁・子授安産",
    "lat": 31.753766098407116,
    "lng": 130.73786566425107
  },
  {
    "id": 99,
    "name": "都農神社",
    "region": "九州・沖縄",
    "reading": "つのじんじゃ",
    "province": "日向国",
    "prefecture": "宮崎県",
    "address": "宮崎県児湯郡都農町大字川北 13294 JR日豊本線 都農駅 2.2km 宮崎駅より約45km",
    "zip": "889-1201",
    "tel": "0983-25-3256",
    "deity": "大己貴命",
    "virtue": "縁結び・海上安全・疫病退散",
    "lat": 32.263263060038035,
    "lng": 131.5586594666331
  },
  {
    "id": 100,
    "name": "柞原八幡宮",
    "region": "九州・沖縄",
    "reading": "ゆすはらはちまんぐう",
    "province": "豊後国",
    "prefecture": "大分県",
    "address": "大分県大分市大字八幡 987 JR日豊本線 西大分駅 バス10分 4km",
    "zip": "870-0808",
    "tel": "097-534-0065",
    "deity": "応神天皇・仲哀天皇・ 神功皇后",
    "virtue": "厄除開運・殖産興業・交通安全",
    "lat": 33.23831752694772,
    "lng": 131.5510152077635
  },
  {
    "id": 101,
    "name": "西寒多神社",
    "region": "九州・沖縄",
    "reading": "ささむたじんじゃ",
    "province": "豊後国",
    "prefecture": "大分県",
    "address": "大分県大分市大字寒田 1644 JR豊肥本線 敷戸駅 タクシー5分 3km",
    "zip": "870-1123",
    "tel": "097-569-4182",
    "deity": "西寒多大神",
    "virtue": "家内安全・精神安定・縁結び",
    "lat": 33.17302133408736,
    "lng": 131.5983687489601
  },
  {
    "id": 102,
    "name": "宇佐神宮",
    "region": "九州・沖縄",
    "reading": "うさじんぐう",
    "province": "豊前国",
    "prefecture": "大分県",
    "address": "大分県宇佐市南宇佐 2859JR日豊本線 宇佐駅 バス10分 3.7km",
    "zip": "872-0102",
    "tel": "0978-37-0001",
    "deity": "八幡大神 比売大神・神功皇后",
    "virtue": "国家鎮護・家内安全・交通安全",
    "lat": 33.52359961743142,
    "lng": 131.3771322362401
  },
  {
    "id": 103,
    "name": "阿蘇神社",
    "region": "九州・沖縄",
    "reading": "あそじんじゃ",
    "province": "肥後国",
    "prefecture": "熊本県",
    "address": "熊本県阿蘇市一の宮町宮地 3083-1 JR豊肥本線(阿蘇高原線) 宮地駅 1.3km",
    "zip": "869-2612",
    "tel": "0967-22-0064",
    "deity": "健磐龍命・阿蘇都比咩命",
    "virtue": "生活守護・水利灌漑・縁結び",
    "lat": 32.94817693120229,
    "lng": 131.11574152737387
  },
  {
    "id": 104,
    "name": "海神神社",
    "region": "九州・沖縄",
    "reading": "わたつみじんじゃ・かいじんじんじゃ",
    "province": "対馬国",
    "prefecture": "長崎県",
    "address": "長崎県対馬市峰町木坂 247 九州郵船 厳原港 51km 対馬空港41km 厳原タクシー 0920-52-0227",
    "zip": "817-1303",
    "tel": "0920-83-0137",
    "deity": "豊玉姫命 鵜茅草葺不合命",
    "virtue": "海上安全・豊漁・安産守護",
    "lat": 34.47707711076759,
    "lng": 129.28535445320836
  },
  {
    "id": 105,
    "name": "天手長男神社",
    "region": "九州・沖縄",
    "reading": "あめのたながおじんじゃ・あまのたながおじんじゃ",
    "province": "壱岐国",
    "prefecture": "長崎県",
    "address": "長崎県壱岐市郷ノ浦町田中触 730九州郵船 郷ノ浦港 タクシー10分 3.5km 壱岐交通タクシー 0920-47-1155",
    "zip": "811-5117",
    "tel": "0920-47-5748",
    "deity": "天忍穂耳命・天手力男命",
    "virtue": "武運長久・安産守護・子育て",
    "lat": 33.76412951039845,
    "lng": 129.70246702631567
  },
  {
    "id": 106,
    "name": "住吉神社",
    "region": "九州・沖縄",
    "reading": "すみよしじんじゃ",
    "province": "筑前国",
    "prefecture": "福岡県",
    "address": "福岡県福岡市博多区住吉 3-1-15 JR博多駅より徒歩約8分",
    "zip": "558-0045",
    "tel": "092-291-2670",
    "deity": "底筒男命・中筒男命・表筒男命",
    "virtue": "住吉三神・天照皇大神・神功皇后",
    "lat": 33.58589681552552,
    "lng": 130.4136396404248
  },
  {
    "id": 107,
    "name": "千栗八幡宮",
    "region": "九州・沖縄",
    "reading": "ちりくはちまんぐう",
    "province": "肥前国",
    "prefecture": "佐賀県",
    "address": "佐賀県三養基郡みやき町大字白壁千栗2415 JR九州鹿児島本線 久留米駅 （徒歩約35分） バス：久留米駅から西鉄バスで「千栗八幡宮前」バス停下車 （下車後徒歩すぐ） 地図",
    "zip": "849-0111",
    "tel": "0942-89-5566",
    "deity": "応神天皇・仲哀天皇・神功皇后",
    "virtue": "",
    "lat": 33.33132246145131,
    "lng": 130.47870155477548
  },
  {
    "id": 108,
    "name": "筥崎宮",
    "region": "九州・沖縄",
    "reading": "はこざきぐう",
    "province": "筑前国",
    "prefecture": "福岡県",
    "address": "福岡県福岡市東区箱崎1-22-1 福岡市地下鉄箱崎線 箱崎宮前駅 （1番出口より徒歩3分） 西鉄バスで「箱崎」バス停下車 （下車後徒歩3分） 地図",
    "zip": "812-8655",
    "tel": "092-641-7431",
    "deity": "応神天皇・神功皇后・玉依姫命",
    "virtue": "",
    "lat": 33.614984202223695,
    "lng": 130.42286833784638
  },
  {
    "id": 109,
    "name": "興止日女神杜",
    "region": "九州・沖縄",
    "reading": "よどひめじんじゃ",
    "province": "肥前国",
    "prefecture": "佐賀県",
    "address": "佐賀県佐賀市大和町大字川上1ｰ1 九州旅客鉄道（JR九州）長崎本線 佐賀駅から 昭和バスで「川上橋」バス停下車 （下車後徒歩すぐ） または車で約20分 地図",
    "zip": "840-0214",
    "tel": "0952-62-5705",
    "deity": "與止日女命",
    "virtue": "",
    "lat": 33.32630486556611,
    "lng": 130.26830735617534
  }
]